$GNTXT,01,01,02,u-blox AG - www.u-blox.com*4E
$GNTXT,01,01,02,HW UBX-M80xx 00080000 *43
$GNTXT,01,01,02,ROM CORE 2.01 (75331) Oct 29 2013 13:28:17*4A
$GNTXT,01,01,02,PROTVER 15.00*01
$GNTXT,01,01,02,GNSS OTP:  GPS GLO, SEL:  GPS GLO*67
$GNTXT,01,01,02,ANTSUPERV=AC SD PDoS SR*3E
$GNTXT,01,01,02,ANTSTATUS=OK*25
$GNTXT,01,01,02,LLC FFFFFFFF-FFFFFFED-FFFFFFFF-FFFFFFFF-FFFFFFE9*4D
$GNRMC,122545.00,A,5126.69628,N,00712.65878,E,0.241,,290816,,,A*6B
$GNVTG,,T,,M,0.241,N,0.445,K,A*3F
$GNGGA,122545.00,5126.69628,N,00712.65878,E,1,09,1.28,141.7,M,46.5,M,,*42
$GNGSA,A,3,21,16,30,07,10,27,08,18,,,,,2.37,1.28,1.99*15
$GNGSA,A,3,75,,,,,,,,,,,,2.37,1.28,1.99*12
$GPGSV,4,1,15,04,11,168,08,07,15,302,07,08,40,294,27,10,51,143,28*71
$GPGSV,4,2,15,11,05,263,,13,06,016,,15,12,045,,16,50,199,20*7D
$GPGSV,4,3,15,18,49,081,29,20,08,039,,21,29,068,24,26,25,179,*70
$GPGSV,4,4,15,27,79,297,33,30,10,327,26,33,27,208,*45
$GLGSV,3,1,09,67,21,027,,68,47,088,,69,25,150,,73,05,210,*6A
$GLGSV,3,2,09,74,32,253,20,75,30,316,21,83,47,074,20,84,63,316,*6B
$GLGSV,3,3,09,85,16,284,18*51
$GNGLL,5126.69628,N,00712.65878,E,122545.00,A,A*71
$GNRMC,122546.00,A,5126.69642,N,00712.65880,E,0.050,,290816,,,A*61
$GNVTG,,T,,M,0.050,N,0.093,K,A*32
$GNGGA,122546.00,5126.69642,N,00712.65880,E,1,09,1.28,142.0,M,46.5,M,,*4E
$GNGSA,A,3,21,16,30,07,10,27,08,18,,,,,2.37,1.28,1.99*15
$GNGSA,A,3,75,,,,,,,,,,,,2.37,1.28,1.99*12
$GPGSV,4,1,15,04,11,168,09,07,15,302,07,08,40,294,27,10,51,143,27*7F
$GPGSV,4,2,15,11,05,263,,13,06,016,,15,12,045,,16,50,199,20*7D
$GPGSV,4,3,15,18,49,081,29,20,08,039,,21,29,068,25,26,25,179,*71
$GPGSV,4,4,15,27,79,297,33,30,10,327,26,33,27,208,*45
$GLGSV,3,1,09,67,21,027,,68,47,088,,69,25,150,,73,05,210,*6A
$GLGSV,3,2,09,74,32,253,20,75,30,316,20,83,47,074,20,84,63,316,*6A
$GLGSV,3,3,09,85,16,284,18*51
$GNGLL,5126.69642,N,00712.65880,E,122546.00,A,A*79
$GNRMC,122547.00,A,5126.69658,N,00712.65883,E,0.094,,290816,,,A*60
$GNVTG,,T,,M,0.094,N,0.174,K,A*32
$GNGGA,122547.00,5126.69658,N,00712.65883,E,1,08,1.33,142.4,M,46.5,M,,*48
$GNGSA,A,3,21,16,30,10,27,08,18,,,,,,2.59,1.33,2.22*13
$GNGSA,A,3,75,,,,,,,,,,,,2.59,1.33,2.22*13
$GPGSV,4,1,15,04,11,168,10,07,15,302,07,08,40,294,27,10,51,143,27*77
$GPGSV,4,2,15,11,05,263,,13,06,016,,15,12,045,,16,50,199,21*7C
$GPGSV,4,3,15,18,49,081,29,20,08,039,,21,29,068,24,26,25,179,*70
$GPGSV,4,4,15,27,79,297,33,30,10,327,26,33,27,208,*45
$GLGSV,3,1,09,67,21,027,,68,47,088,,69,25,150,,73,05,210,*6A
$GLGSV,3,2,09,74,32,253,21,75,30,316,21,83,47,074,20,84,63,316,*6A
$GLGSV,3,3,09,85,16,284,18*51
$GNGLL,5126.69658,N,00712.65883,E,122547.00,A,A*70
$GNRMC,122548.00,A,5126.69668,N,00712.65881,E,0.059,,290816,,,A*6F
$GNVTG,,T,,M,0.059,N,0.110,K,A*31
$GNGGA,122548.00,5126.69668,N,00712.65881,E,1,08,1.33,142.6,M,46.5,M,,*44
$GNGSA,A,3,21,16,30,10,27,08,18,,,,,,2.59,1.33,2.22*13
$GNGSA,A,3,75,,,,,,,,,,,,2.59,1.33,2.22*13
$GPGSV,4,1,15,04,11,168,10,07,15,302,07,08,40,294,27,10,51,143,27*77
$GPGSV,4,2,15,11,05,263,,13,06,016,,15,12,045,,16,50,199,21*7C
$GPGSV,4,3,15,18,49,081,30,20,08,039,,21,29,068,24,26,25,179,*78
$GPGSV,4,4,15,27,79,297,33,30,10,327,25,33,27,208,*46
$GLGSV,3,1,09,67,21,027,,68,47,088,,69,25,150,,73,05,210,*6A
$GLGSV,3,2,09,74,32,253,21,75,30,316,21,83,47,074,19,84,63,316,*60
$GLGSV,3,3,09,85,16,284,19*50
$GNGLL,5126.69668,N,00712.65881,E,122548.00,A,A*7E
$GNRMC,122549.00,A,5126.69677,N,00712.65882,E,0.068,,290816,,,A*61
$GNVTG,,T,,M,0.068,N,0.126,K,A*36
$GNGGA,122549.00,5126.69677,N,00712.65882,E,1,08,1.33,142.9,M,46.5,M,,*47
$GNGSA,A,3,21,16,30,10,27,08,18,,,,,,2.59,1.33,2.22*13
$GNGSA,A,3,75,,,,,,,,,,,,2.59,1.33,2.22*13
$GPGSV,4,1,15,04,11,168,08,07,15,302,07,08,40,294,27,10,51,143,27*7E
$GPGSV,4,2,15,11,05,263,,13,06,016,,15,12,045,,16,50,199,21*7C
$GPGSV,4,3,15,18,49,081,30,20,08,039,,21,29,068,24,26,25,179,06*7E
$GPGSV,4,4,15,27,79,297,33,30,10,327,26,33,27,208,*45
$GLGSV,3,1,09,67,21,027,,68,47,088,,69,25,150,,73,05,210,*6A
$GLGSV,3,2,09,74,32,253,21,75,31,315,20,83,47,074,20,84,63,316,*69
$GLGSV,3,3,09,85,16,284,18*51
$GNGLL,5126.69677,N,00712.65882,E,122549.00,A,A*72
$GNRMC,122550.00,A,5126.69685,N,00712.65884,E,0.036,,290816,,,A*69
$GNVTG,,T,,M,0.036,N,0.066,K,A*38
$GNGGA,122550.00,5126.69685,N,00712.65884,E,1,09,1.33,143.2,M,46.5,M,,*4F
$GNGSA,A,3,21,16,30,10,27,26,08,18,,,,,2.59,1.33,2.22*17
$GNGSA,A,3,75,,,,,,,,,,,,2.59,1.33,2.22*13
$GPGSV,4,1,15,04,11,168,11,07,15,302,11,08,40,294,26,10,51,143,26*71
$GPGSV,4,2,15,11,05,263,,13,06,016,,15,12,045,,16,50,199,20*7D
$GPGSV,4,3,15,18,49,081,29,20,08,039,,21,29,068,24,26,25,179,07*77
$GPGSV,4,4,15,27,79,297,34,30,10,327,26,33,27,208,*42
$GLGSV,3,1,09,67,21,027,,68,47,088,,69,25,150,,73,05,210,*6A
$GLGSV,3,2,09,74,32,253,20,75,31,315,19,83,47,074,20,84,63,316,*62
$GLGSV,3,3,09,85,16,284,17*5E
$GNGLL,5126.69685,N,00712.65884,E,122550.00,A,A*71
$GNRMC,122551.00,A,5126.69687,N,00712.65880,E,0.198,,290816,,,A*6B
$GNVTG,,T,,M,0.198,N,0.367,K,A*3F
$GNGGA,122551.00,5126.69687,N,00712.65880,E,1,09,0.96,143.4,M,46.5,M,,*40
$GNGSA,A,3,21,16,30,10,27,26,08,18,,,,,1.85,0.96,1.58*15
$GNGSA,A,3,75,,,,,,,,,,,,1.85,0.96,1.58*11
$GPGSV,4,1,15,04,11,168,09,07,15,302,11,08,40,294,26,10,51,143,27*79
$GPGSV,4,2,15,11,05,263,,13,06,016,,15,12,045,,16,50,199,18*76
$GPGSV,4,3,15,18,49,081,29,20,08,039,,21,29,068,24,26,25,179,10*71
$GPGSV,4,4,15,27,79,297,34,30,10,327,26,33,27,208,*42
$GLGSV,3,1,09,67,21,027,,68,47,088,,69,25,150,,73,05,210,*6A
$GLGSV,3,2,09,74,32,253,18,75,31,315,18,83,47,074,21,84,63,316,*69
$GLGSV,3,3,09,85,16,284,17*5E
$GNGLL,5126.69687,N,00712.65880,E,122551.00,A,A*76
$GNRMC,122552.00,A,5126.69695,N,00712.65882,E,0.029,,290816,,,A*62
$GNVTG,,T,,M,0.029,N,0.054,K,A*37
$GNGGA,122552.00,5126.69695,N,00712.65882,E,1,08,1.33,143.7,M,46.5,M,,*4E
$GNGSA,A,3,21,16,30,10,27,08,18,,,,,,2.59,1.33,2.22*13
$GNGSA,A,3,75,,,,,,,,,,,,2.59,1.33,2.22*13
$GPGSV,4,1,15,04,11,168,10,07,15,302,11,08,40,294,26,10,51,143,27*71
$GPGSV,4,2,15,11,05,263,,13,06,016,,15,12,045,,16,50,199,17*79
$GPGSV,4,3,15,18,49,081,29,20,08,039,,21,29,068,24,26,25,179,10*71
$GPGSV,4,4,15,27,79,297,34,30,10,327,26,33,27,208,*42
$GLGSV,3,1,09,67,21,027,,68,47,088,,69,25,150,,73,05,210,*6A
$GLGSV,3,2,09,74,32,253,18,75,31,315,17,83,47,074,21,84,63,316,*66
$GLGSV,3,3,09,85,16,284,16*5F
$GNGLL,5126.69695,N,00712.65882,E,122552.00,A,A*74
$GNRMC,122553.00,A,5126.69704,N,00712.65888,E,0.151,,290816,,,A*6E
$GNVTG,,T,,M,0.151,N,0.280,K,A*32
$GNGGA,122553.00,5126.69704,N,00712.65888,E,1,09,1.28,143.9,M,46.5,M,,*49
$GNGSA,A,3,21,16,30,07,10,27,08,18,,,,,2.37,1.28,1.99*15
$GNGSA,A,3,75,,,,,,,,,,,,2.37,1.28,1.99*12
$GPGSV,4,1,15,04,11,168,10,07,15,302,11,08,40,294,26,10,51,143,27*71
$GPGSV,4,2,15,11,05,263,,13,06,016,,15,12,045,,16,50,199,17*79
$GPGSV,4,3,15,18,49,081,29,20,08,039,,21,29,068,24,26,25,179,10*71
$GPGSV,4,4,15,27,79,297,34,30,10,327,26,33,27,208,*42
$GLGSV,3,1,09,67,21,027,,68,47,088,,69,25,150,,73,05,210,*6A
$GLGSV,3,2,09,74,32,253,18,75,31,315,17,83,47,074,21,84,63,316,*66
$GLGSV,3,3,09,85,16,284,15*5C
$GNGLL,5126.69704,N,00712.65888,E,122553.00,A,A*76
$GNRMC,122554.00,A,5126.69707,N,00712.65887,E,0.107,,290816,,,A*66
$GNVTG,,T,,M,0.107,N,0.198,K,A*3B
$GNGGA,122554.00,5126.69707,N,00712.65887,E,1,10,0.93,144.0,M,46.5,M,,*45
$GNGSA,A,3,21,16,30,07,10,27,26,08,18,,,,1.76,0.93,1.50*13
$GNGSA,A,3,75,,,,,,,,,,,,1.76,0.93,1.50*10
$GPGSV,4,1,15,04,11,168,10,07,15,302,11,08,40,294,26,10,51,143,27*71
$GPGSV,4,2,15,11,05,263,,13,06,016,,15,12,045,,16,50,199,17*79
$GPGSV,4,3,15,18,49,081,29,20,08,039,,21,29,068,24,26,25,179,10*71
$GPGSV,4,4,15,27,79,297,34,30,10,327,26,33,27,208,*42
$GLGSV,3,1,09,67,21,027,,68,47,088,,69,25,150,,73,05,210,*6A
$GLGSV,3,2,09,74,32,253,19,75,31,315,16,83,47,074,21,84,63,316,*66
$GLGSV,3,3,09,85,16,284,13*5A
$GNGLL,5126.69707,N,00712.65887,E,122554.00,A,A*7D
$GNRMC,122555.00,A,5126.69710,N,00712.65882,E,0.041,,290816,,,A*67
$GNVTG,,T,,M,0.041,N,0.076,K,A*39
$GNGGA,122555.00,5126.69710,N,00712.65882,E,1,10,0.93,144.2,M,46.5,M,,*45
$GNGSA,A,3,21,16,30,07,10,27,26,08,18,,,,1.76,0.93,1.50*13
$GNGSA,A,3,75,,,,,,,,,,,,1.76,0.93,1.50*10
$GPGSV,4,1,15,04,11,168,07,07,15,302,11,08,40,294,26,10,51,143,27*77
$GPGSV,4,2,15,11,05,263,,13,06,016,,15,12,045,,16,50,199,17*79
$GPGSV,4,3,15,18,49,081,29,20,08,039,,21,29,068,25,26,25,179,10*70
$GPGSV,4,4,15,27,79,297,34,30,10,327,26,33,27,208,*42
$GLGSV,3,1,09,67,21,027,,68,47,088,,69,25,150,,73,05,210,*6A
$GLGSV,3,2,09,74,32,253,19,75,31,315,17,83,47,074,21,84,63,316,*67
$GLGSV,3,3,09,85,16,284,13*5A
$GNGLL,5126.69710,N,00712.65882,E,122555.00,A,A*7F
$GNRMC,122556.00,A,5126.69715,N,00712.65880,E,0.132,,290816,,,A*66
$GNVTG,,T,,M,0.132,N,0.244,K,A*3F
$GNGGA,122556.00,5126.69715,N,00712.65880,E,1,10,0.96,144.3,M,46.5,M,,*45
$GNGSA,A,3,21,16,30,07,10,27,26,08,18,,,,1.85,0.96,1.58*12
$GNGSA,A,3,75,,,,,,,,,,,,1.85,0.96,1.58*11
$GPGSV,4,1,15,04,11,168,09,07,15,302,10,08,40,294,26,10,51,143,27*78
$GPGSV,4,2,15,11,05,263,,13,06,016,,15,12,045,,16,50,199,17*79
$GPGSV,4,3,15,18,49,081,29,20,08,039,,21,29,068,25,26,25,179,11*71
$GPGSV,4,4,15,27,79,297,34,30,10,327,26,33,27,208,*42
